- fields:
    country: Netherlands
    created_at: '2023-12-12T10:55:17.904896'
    latitude: 52.243498
    longitude: 5.634323
    province_state: ''
    town_city: ''
    updated_at: '2023-12-12T10:55:17.904906'
  model: postcards.location
  pk: 1
- fields:
    country: Germany
    created_at: '2023-12-12T10:55:17.904918'
    latitude: 50.938361
    longitude: 6.959974
    province_state: North Rhine Westphalia
    town_city: "K\xF6ln"
    updated_at: '2023-12-12T10:55:17.904919'
  model: postcards.location
  pk: 2
- fields:
    country: Netherlands
    created_at: '2023-12-12T10:55:17.904929'
    latitude: 52.074946
    longitude: 4.26968
    province_state: South Holland
    town_city: s Gravenhage
    updated_at: '2023-12-12T10:55:17.904930'
  model: postcards.location
  pk: 3
- fields:
    country: Germany
    created_at: '2023-12-12T10:55:17.904942'
    latitude: 50.776351
    longitude: 6.083862
    province_state: North Rhine - Westphalia
    town_city: Aachen
    updated_at: '2023-12-12T10:55:17.904943'
  model: postcards.location
  pk: 4
- fields:
    country: Netherlands
    created_at: '2023-12-12T10:55:17.904948'
    latitude: 51.914182
    longitude: 6.577399
    province_state: Gelderland
    town_city: Aalten
    updated_at: '2023-12-12T10:55:17.904949'
  model: postcards.location
  pk: 5
- fields:
    country: Netherlands
    created_at: '2023-12-12T10:55:17.904953'
    latitude: 52.600854
    longitude: 4.817099
    province_state: North Holland
    town_city: Alkmaar
    updated_at: '2023-12-12T10:55:17.904954'
  model: postcards.location
  pk: 6
- fields:
    country: Netherlands
    created_at: '2023-12-12T10:55:17.904958'
    latitude: 52.600854
    longitude: 4.817099
    province_state: ''
    town_city: Alkmaar
    updated_at: '2023-12-12T10:55:17.904959'
  model: postcards.location
  pk: 7
- fields:
    country: Netherlands
    created_at: '2023-12-12T10:55:17.904963'
    latitude: 52.356796
    longitude: 6.667253
    province_state: Overijssel
    town_city: Almelo
    updated_at: '2023-12-12T10:55:17.904964'
  model: postcards.location
  pk: 8
- fields:
    country: Netherlands
    created_at: '2023-12-12T10:55:17.904973'
    latitude: 52.15625
    longitude: 5.389694
    province_state: Utrecht
    town_city: Amersfoort
    updated_at: '2023-12-12T10:55:17.904974'
  model: postcards.location
  pk: 9
- fields:
    country: Netherlands
    created_at: '2023-12-12T10:55:17.904978'
    latitude: 52.37308
    longitude: 4.892453
    province_state: North Brabant
    town_city: Amsterdam
    updated_at: '2023-12-12T10:55:17.904979'
  model: postcards.location
  pk: 10
- fields:
    country: ''
    created_at: '2023-12-12T10:55:17.904983'
    latitude: 52.37308
    longitude: 4.892453
    province_state: ''
    town_city: Amsterdam
    updated_at: '2023-12-12T10:55:17.904984'
  model: postcards.location
  pk: 11
- fields:
    country: Netherlands
    created_at: '2023-12-12T10:55:17.904988'
    latitude: 52.37308
    longitude: 4.892453
    province_state: North Holland
    town_city: Amsterdam
    updated_at: '2023-12-12T10:55:17.904988'
  model: postcards.location
  pk: 12
- fields:
    country: ''
    created_at: '2023-12-12T10:55:17.904992'
    latitude: 52.360545
    longitude: 4.93668
    province_state: ''
    town_city: Amsterdam - Sumatrastraat
    updated_at: '2023-12-12T10:55:17.904993'
  model: postcards.location
  pk: 13
- fields:
    country: Netherlands
    created_at: '2023-12-12T10:55:17.904997'
    latitude: 52.378334
    longitude: 4.900322
    province_state: North Holland
    town_city: Amsterdam Central
    updated_at: '2023-12-12T10:55:17.904998'
  model: postcards.location
  pk: 14
- fields:
    country: ''
    created_at: '2023-12-12T10:55:17.905002'
    latitude: 52.378901
    longitude: 4.900581
    province_state: ''
    town_city: Amsterdam CS
    updated_at: '2023-12-12T10:55:17.905003'
  model: postcards.location
  pk: 15
- fields:
    country: Netherlands
    created_at: '2023-12-12T10:55:17.905012'
    latitude: 52.37308
    longitude: 4.892453
    province_state: North Holland
    town_city: Amsterdam W
    updated_at: '2023-12-12T10:55:17.905012'
  model: postcards.location
  pk: 16
- fields:
    country: Belgium
    created_at: '2023-12-12T10:55:17.905016'
    latitude: 51.22111
    longitude: 4.399708
    province_state: Antwerp
    town_city: Antwerp
    updated_at: '2023-12-12T10:55:17.905017'
  model: postcards.location
  pk: 17
- fields:
    country: Belgium
    created_at: '2023-12-12T10:55:17.905021'
    latitude: 51.066982
    longitude: 4.309767
    province_state: Flanders
    town_city: Anvers (Antwerp)
    updated_at: '2023-12-12T10:55:17.905022'
  model: postcards.location
  pk: 18
- fields:
    country: ''
    created_at: '2023-12-12T10:55:17.905026'
    latitude: 52.179574
    longitude: 5.930077
    province_state: ''
    town_city: Apeldoorn
    updated_at: '2023-12-12T10:55:17.905027'
  model: postcards.location
  pk: 19
- fields:
    country: Netherlands
    created_at: '2023-12-12T10:55:17.905031'
    latitude: 52.179574
    longitude: 5.930077
    province_state: Gelderland
    town_city: Apeldoorn
    updated_at: '2023-12-12T10:55:17.905032'
  model: postcards.location
  pk: 20
- fields:
    country: Netherlands
    created_at: '2023-12-12T10:55:17.905041'
    latitude: 51.984257
    longitude: 5.910857
    province_state: Gelderland
    town_city: Arnheim
    updated_at: '2023-12-12T10:55:17.905041'
  model: postcards.location
  pk: 21
- fields:
    country: ''
    created_at: '2023-12-12T10:55:17.905046'
    latitude: 52.005664
    longitude: 5.876235
    province_state: ''
    town_city: Arnhem
    updated_at: '2023-12-12T10:55:17.905046'
  model: postcards.location
  pk: 22
- fields:
    country: Netherlands
    created_at: '2023-12-12T10:55:17.905050'
    latitude: 52.005664
    longitude: 5.876235
    province_state: Gelderland
    town_city: Arnhem
    updated_at: '2023-12-12T10:55:17.905051'
  model: postcards.location
  pk: 23
- fields:
    country: Netherlands
    created_at: '2023-12-12T10:55:17.905055'
    latitude: 52.468111
    longitude: 4.744961
    province_state: North Holland
    town_city: Assendelft
    updated_at: '2023-12-12T10:55:17.905056'
  model: postcards.location
  pk: 24
- fields:
    country: Netherlands
    created_at: '2023-12-12T10:55:17.905060'
    latitude: 51.267395
    longitude: 3.907159
    province_state: Zeeland
    town_city: Axel
    updated_at: '2023-12-12T10:55:17.905061'
  model: postcards.location
  pk: 25
- fields:
    country: Netherlands
    created_at: '2023-12-12T10:55:17.905064'
    latitude: 51.408433
    longitude: 3.885241
    province_state: Zeeland
    town_city: Baarland
    updated_at: '2023-12-12T10:55:17.905065'
  model: postcards.location
  pk: 26
- fields:
    country: Netherlands
    created_at: '2023-12-12T10:55:17.905069'
    latitude: 52.21115
    longitude: 5.293091
    province_state: Utrecht
    town_city: Baarn
    updated_at: '2023-12-12T10:55:17.905070'
  model: postcards.location
  pk: 27
- fields:
    country: Colombia
    created_at: '2023-12-12T10:55:17.905100'
    latitude: 11.010192
    longitude: -74.823179
    province_state: Atlantico
    town_city: Barranquilla
    updated_at: '2023-12-12T10:55:17.905100'
  model: postcards.location
  pk: 28
- fields:
    country: Netherlands
    created_at: '2023-12-12T10:55:17.905109'
    latitude: 51.891538
    longitude: 5.898481
    province_state: Gelderland
    town_city: Bemmel
    updated_at: '2023-12-12T10:55:17.905110'
  model: postcards.location
  pk: 29
- fields:
    country: Germany
    created_at: '2023-12-12T10:55:17.905114'
    latitude: 50.966242
    longitude: 7.161443
    province_state: North Rhine-Westphalia
    town_city: Bensberg
    updated_at: '2023-12-12T10:55:17.905115'
  model: postcards.location
  pk: 30
- fields:
    country: ''
    created_at: '2023-12-12T10:55:17.905119'
    latitude: 51.494476
    longitude: 4.287154
    province_state: ''
    town_city: Bergen  op Zoom
    updated_at: '2023-12-12T10:55:17.905120'
  model: postcards.location
  pk: 31
- fields:
    country: Netherlands
    created_at: '2023-12-12T10:55:17.905124'
    latitude: 51.494476
    longitude: 4.287154
    province_state: North Brabant
    town_city: Bergen op Zoom
    updated_at: '2023-12-12T10:55:17.905124'
  model: postcards.location
  pk: 32
- fields:
    country: United States
    created_at: '2023-12-12T10:55:17.905128'
    latitude: 37.870839
    longitude: -122.272863
    province_state: California
    town_city: Berkeley
    updated_at: '2023-12-12T10:55:17.905129'
  model: postcards.location
  pk: 33
- fields:
    country: Germany
    created_at: '2023-12-12T10:55:17.905133'
    latitude: 52.499548
    longitude: 13.284942
    province_state: Berlin
    town_city: Berlin-Halensee
    updated_at: '2023-12-12T10:55:17.905134'
  model: postcards.location
  pk: 34
- fields:
    country: Germany
    created_at: '2023-12-12T10:55:17.905138'
    latitude: 50.867435
    longitude: 6.09628
    province_state: Berlin-Brandenburg
    town_city: Berlin
    updated_at: '2023-12-12T10:55:17.905139'
  model: postcards.location
  pk: 35
- fields:
    country: France
    created_at: '2023-12-12T10:55:17.905144'
    latitude: 43.342656
    longitude: 3.213131
    province_state: "H\xE9rault"
    town_city: "B\xE9ziers"
    updated_at: '2023-12-12T10:55:17.905145'
  model: postcards.location
  pk: 36
- fields:
    country: Germany
    created_at: '2023-12-12T10:55:17.905149'
    latitude: 52.019101
    longitude: 8.531007
    province_state: Ostwestfalen-Lippe
    town_city: Bielefeld
    updated_at: '2023-12-12T10:55:17.905150'
  model: postcards.location
  pk: 37
- fields:
    country: Netherlands
    created_at: '2023-12-12T10:55:17.905154'
    latitude: 52.128969
    longitude: 5.204613
    province_state: Utrecht
    town_city: Bilthoven
    updated_at: '2023-12-12T10:55:17.905155'
  model: postcards.location
  pk: 38
- fields:
    country: Netherlands
    created_at: '2023-12-12T10:55:17.905158'
    latitude: 51.58906
    longitude: 5.315795
    province_state: North Brabant
    town_city: Boxtel
    updated_at: '2023-12-12T10:55:17.905159'
  model: postcards.location
  pk: 39
- fields:
    country: Germany
    created_at: '2023-12-12T10:55:17.905163'
    latitude: 52.261227
    longitude: 10.588201
    province_state: Lower Saxony
    town_city: Braunschweig (Brunswick)
    updated_at: '2023-12-12T10:55:17.905164'
  model: postcards.location
  pk: 40
- fields:
    country: ''
    created_at: '2023-12-12T10:55:17.905168'
    latitude: 51.588785
    longitude: 4.776024
    province_state: ''
    town_city: Breda
    updated_at: '2023-12-12T10:55:17.905169'
  model: postcards.location
  pk: 41
- fields:
    country: Netherlands
    created_at: '2023-12-12T10:55:17.905173'
    latitude: 51.588785
    longitude: 4.776024
    province_state: North Brabant
    town_city: Breda
    updated_at: '2023-12-12T10:55:17.905174'
  model: postcards.location
  pk: 42
- fields:
    country: Germany
    created_at: '2023-12-12T10:55:17.905182'
    latitude: 53.07582
    longitude: 8.807165
    province_state: Lower Saxony
    town_city: Bremen
    updated_at: '2023-12-12T10:55:17.905183'
  model: postcards.location
  pk: 43
- fields:
    country: United States
    created_at: '2023-12-12T10:55:17.905187'
    latitude: 40.652601
    longitude: -73.949721
    province_state: New York
    town_city: Brooklyn
    updated_at: '2023-12-12T10:55:17.905188'
  model: postcards.location
  pk: 44
- fields:
    country: Belgium
    created_at: '2023-12-12T10:55:17.905197'
    latitude: 50.846557
    longitude: 4.351697
    province_state: Brussels
    town_city: Brussels
    updated_at: '2023-12-12T10:55:17.905198'
  model: postcards.location
  pk: 45
- fields:
    country: ''
    created_at: '2023-12-12T10:55:17.905207'
    latitude: 52.277366
    longitude: 5.163065
    province_state: ''
    town_city: Bussum
    updated_at: '2023-12-12T10:55:17.905207'
  model: postcards.location
  pk: 46
- fields:
    country: Netherlands
    created_at: '2023-12-12T10:55:17.905211'
    latitude: 52.277366
    longitude: 5.163065
    province_state: North Holland
    town_city: Bussum
    updated_at: '2023-12-12T10:55:17.905212'
  model: postcards.location
  pk: 47
- fields:
    country: ''
    created_at: '2023-12-12T10:55:17.905221'
    latitude: 41.875562
    longitude: -87.624421
    province_state: ''
    town_city: Chicago
    updated_at: '2023-12-12T10:55:17.905221'
  model: postcards.location
  pk: 48
- fields:
    country: Netherlands
    created_at: '2023-12-12T10:55:17.905225'
    latitude: 51.599906
    longitude: 3.84735
    province_state: Zeeland
    town_city: Colijnsplaat
    updated_at: '2023-12-12T10:55:17.905226'
  model: postcards.location
  pk: 49
- fields:
    country: ''
    created_at: '2023-12-12T10:55:17.905230'
    latitude: 51.607041
    longitude: 4.722144
    province_state: ''
    town_city: Commando Noord-Brabant
    updated_at: '2023-12-12T10:55:17.905231'
  model: postcards.location
  pk: 50
- fields:
    country: ''
    created_at: '2023-12-12T10:55:17.905241'
    latitude: 28.067058
    longitude: 112.030104
    province_state: ''
    town_city: Covered
    updated_at: '2023-12-12T10:55:17.905241'
  model: postcards.location
  pk: 51
- fields:
    country: Switzerland
    created_at: '2023-12-12T10:55:17.905250'
    latitude: 47.050249
    longitude: 9.445266
    province_state: ''
    town_city: Covered
    updated_at: '2023-12-12T10:55:17.905251'
  model: postcards.location
  pk: 52
- fields:
    country: England
    created_at: '2023-12-12T10:55:17.905260'
    latitude: 51.558184
    longitude: -0.118112
    province_state: Covered
    town_city: Covered
    updated_at: '2023-12-12T10:55:17.905261'
  model: postcards.location
  pk: 53
- fields:
    country: Netherlands
    created_at: '2023-12-12T10:55:17.905265'
    latitude: 52.144559
    longitude: 5.173777
    province_state: Utrecht
    town_city: De Bilt
    updated_at: '2023-12-12T10:55:17.905266'
  model: postcards.location
  pk: 54
- fields:
    country: Netherlands
    created_at: '2023-12-12T10:55:17.905274'
    latitude: 52.011402
    longitude: 4.35839
    province_state: South Holland
    town_city: Delft
    updated_at: '2023-12-12T10:55:17.905275'
  model: postcards.location
  pk: 55
- fields:
    country: Netherlands
    created_at: '2023-12-12T10:55:17.905283'
    latitude: 52.011402
    longitude: 4.35839
    province_state: ''
    town_city: Delft
    updated_at: '2023-12-12T10:55:17.905284'
  model: postcards.location
  pk: 56
- fields:
    country: Netherlands
    created_at: '2023-12-12T10:55:17.905288'
    latitude: 52.074946
    longitude: 4.26968
    province_state: South Holland
    town_city: Den haag
    updated_at: '2023-12-12T10:55:17.905289'
  model: postcards.location
  pk: 57
- fields:
    country: Netherlands
    created_at: '2023-12-12T10:55:17.905293'
    latitude: 52.074946
    longitude: 4.26968
    province_state: South Holland
    town_city: Den Haag
    updated_at: '2023-12-12T10:55:17.905293'
  model: postcards.location
  pk: 58
- fields:
    country: Netherlands
    created_at: '2023-12-12T10:55:17.905302'
    latitude: 52.102046
    longitude: 4.298201
    province_state: South Holland
    town_city: Den Haag (The Hague)
    updated_at: '2023-12-12T10:55:17.905303'
  model: postcards.location
  pk: 59
- fields:
    country: Netherlands
    created_at: '2023-12-12T10:55:17.905306'
    latitude: 52.952989
    longitude: 4.826759
    province_state: North Holland
    town_city: Den Helder
    updated_at: '2023-12-12T10:55:17.905307'
  model: postcards.location
  pk: 60
- fields:
    country: Netherlands
    created_at: '2023-12-12T10:55:17.905311'
    latitude: 52.952989
    longitude: 4.826759
    province_state: ''
    town_city: Den Helder
    updated_at: '2023-12-12T10:55:17.905312'
  model: postcards.location
  pk: 61
- fields:
    country: Netherlands
    created_at: '2023-12-12T10:55:17.905316'
    latitude: 52.93356
    longitude: 5.030869
    province_state: North Holland
    town_city: Den Oever
    updated_at: '2023-12-12T10:55:17.905316'
  model: postcards.location
  pk: 62
- fields:
    country: Netherlands
    created_at: '2023-12-12T10:55:17.905324'
    latitude: 52.269574
    longitude: 6.23634
    province_state: Overjissel
    town_city: Deventer
    updated_at: '2023-12-12T10:55:17.905325'
  model: postcards.location
  pk: 63
- fields:
    country: Netherlands
    created_at: '2023-12-12T10:55:17.905329'
    latitude: 52.269574
    longitude: 6.23634
    province_state: Overijssel
    town_city: Deventer
    updated_at: '2023-12-12T10:55:17.905330'
  model: postcards.location
  pk: 64
- fields:
    country: ''
    created_at: '2023-12-12T10:55:17.905334'
    latitude: 52.269574
    longitude: 6.23634
    province_state: ''
    town_city: Deventer
    updated_at: '2023-12-12T10:55:17.905335'
  model: postcards.location
  pk: 65
- fields:
    country: Belgium
    created_at: '2023-12-12T10:55:17.905339'
    latitude: 50.984432
    longitude: 5.050434
    province_state: Flemish Brabant
    town_city: Diest
    updated_at: '2023-12-12T10:55:17.905339'
  model: postcards.location
  pk: 66
- fields:
    country: Netherlands
    created_at: '2023-12-12T10:55:17.905343'
    latitude: 51.633948
    longitude: 4.368031
    province_state: North Brabant
    town_city: Dinteloord
    updated_at: '2023-12-12T10:55:17.905344'
  model: postcards.location
  pk: 67
- fields:
    country: Netherlands
    created_at: '2023-12-12T10:55:17.905349'
    latitude: 51.863757
    longitude: 6.487987
    province_state: Gelderland
    town_city: Dinxperlo
    updated_at: '2023-12-12T10:55:17.905350'
  model: postcards.location
  pk: 68
- fields:
    country: ''
    created_at: '2023-12-12T10:55:17.905354'
    latitude: 52.01875
    longitude: 6.151558
    province_state: ''
    town_city: Doesburg
    updated_at: '2023-12-12T10:55:17.905355'
  model: postcards.location
  pk: 69
- fields:
    country: Netherlands
    created_at: '2023-12-12T10:55:17.905359'
    latitude: 51.563214
    longitude: 3.496728
    province_state: Zeeland
    town_city: Domburg
    updated_at: '2023-12-12T10:55:17.905359'
  model: postcards.location
  pk: 70
- fields:
    country: Netherlands
    created_at: '2023-12-12T10:55:17.905363'
    latitude: 52.033316
    longitude: 5.345596
    province_state: Utrecht
    town_city: Doorn
    updated_at: '2023-12-12T10:55:17.905364'
  model: postcards.location
  pk: 71
- fields:
    country: Netherlands
    created_at: '2023-12-12T10:55:17.905368'
    latitude: 51.978869
    longitude: 5.804845
    province_state: Gelderland
    town_city: Doorwerth-Renkum
    updated_at: '2023-12-12T10:55:17.905369'
  model: postcards.location
  pk: 72
- fields:
    country: Netherlands
    created_at: '2023-12-12T10:55:17.905372'
    latitude: 51.795881
    longitude: 4.677935
    province_state: South Holland
    town_city: Dordrecht
    updated_at: '2023-12-12T10:55:17.905373'
  model: postcards.location
  pk: 73
- fields:
    country: ''
    created_at: '2023-12-12T10:55:17.905379'
    latitude: 51.795881
    longitude: 4.677935
    province_state: ''
    town_city: Dordrecht
    updated_at: '2023-12-12T10:55:17.905379'
  model: postcards.location
  pk: 74
- fields:
    country: Germany
    created_at: '2023-12-12T10:55:17.905388'
    latitude: 51.514227
    longitude: 7.465279
    province_state: North Rhine Westphalia
    town_city: Dortmund
    updated_at: '2023-12-12T10:55:17.905389'
  model: postcards.location
  pk: 75
- fields:
    country: Netherlands
    created_at: '2023-12-12T10:55:17.905393'
    latitude: 53.109111
    longitude: 6.09481
    province_state: Friesland
    town_city: Drachten
    updated_at: '2023-12-12T10:55:17.905394'
  model: postcards.location
  pk: 76
- fields:
    country: Germany
    created_at: '2023-12-12T10:55:17.905397'
    latitude: 51.049329
    longitude: 13.738144
    province_state: Saxony
    town_city: Dresden A 24
    updated_at: '2023-12-12T10:55:17.905398'
  model: postcards.location
  pk: 77
- fields:
    country: ''
    created_at: '2023-12-12T10:55:17.905403'
    latitude: -33.703432
    longitude: 18.984387
    province_state: ''
    town_city: Driebergen
    updated_at: '2023-12-12T10:55:17.905404'
  model: postcards.location
  pk: 78
- fields:
    country: ''
    created_at: '2023-12-12T10:55:17.905408'
    latitude: 52.071683
    longitude: 5.745511
    province_state: ''
    town_city: Ede
    updated_at: '2023-12-12T10:55:17.905409'
  model: postcards.location
  pk: 79
- fields:
    country: Netherlands
    created_at: '2023-12-12T10:55:17.905413'
    latitude: 52.071683
    longitude: 5.745511
    province_state: Gelderland
    town_city: Ede
    updated_at: '2023-12-12T10:55:17.905414'
  model: postcards.location
  pk: 80
- fields:
    country: ''
    created_at: '2023-12-12T10:55:17.905422'
    latitude: 52.061306
    longitude: 5.577591
    province_state: ''
    town_city: Ederveen
    updated_at: '2023-12-12T10:55:17.905423'
  model: postcards.location
  pk: 81
- fields:
    country: Japan
    created_at: '2023-12-12T10:55:17.905432'
    latitude: 34.687027
    longitude: 135.490015
    province_state: Osaka
    town_city: Edobori
    updated_at: '2023-12-12T10:55:17.905433'
  model: postcards.location
  pk: 82
- fields:
    country: Netherlands
    created_at: '2023-12-12T10:55:17.905437'
    latitude: 52.268786
    longitude: 5.351167
    province_state: Utrecht
    town_city: Eemdijk-Spakenburg
    updated_at: '2023-12-12T10:55:17.905438'
  model: postcards.location
  pk: 83
- fields:
    country: ''
    created_at: '2023-12-12T10:55:17.905442'
    latitude: 51.439265
    longitude: 5.478633
    province_state: ''
    town_city: Eindhoven
    updated_at: '2023-12-12T10:55:17.905443'
  model: postcards.location
  pk: 84
- fields:
    country: Netherlands
    created_at: '2023-12-12T10:55:17.905446'
    latitude: 51.448557
    longitude: 5.450123
    province_state: North Brabant
    town_city: Eindhoven
    updated_at: '2023-12-12T10:55:17.905447'
  model: postcards.location
  pk: 85
- fields:
    country: Netherlands
    created_at: '2023-12-12T10:55:17.905451'
    latitude: 51.959865
    longitude: 5.880057
    province_state: Gelderland
    town_city: Elden
    updated_at: '2023-12-12T10:55:17.905452'
  model: postcards.location
  pk: 86
- fields:
    country: Germany
    created_at: '2023-12-12T10:55:17.905456'
    latitude: 52.139402
    longitude: 8.558882
    province_state: North Rhine-Westphalia
    town_city: Enger
    updated_at: '2023-12-12T10:55:17.905456'
  model: postcards.location
  pk: 87
- fields:
    country: Netherlands
    created_at: '2023-12-12T10:55:17.905460'
    latitude: 52.220986
    longitude: 6.894054
    province_state: Overjissel
    town_city: Enschede
    updated_at: '2023-12-12T10:55:17.905461'
  model: postcards.location
  pk: 88
- fields:
    country: ''
    created_at: '2023-12-12T10:55:17.905465'
    latitude: 52.223363
    longitude: 6.870596
    province_state: ''
    town_city: Enschede
    updated_at: '2023-12-12T10:55:17.905466'
  model: postcards.location
  pk: 89
- fields:
    country: Netherlands
    created_at: '2023-12-12T10:55:17.905469'
    latitude: 51.883751
    longitude: 5.212994
    province_state: Gelderland
    town_city: Enspijk
    updated_at: '2023-12-12T10:55:17.905470'
  model: postcards.location
  pk: 90
- fields:
    country: Germany
    created_at: '2023-12-12T10:55:17.905481'
    latitude: 51.458224
    longitude: 7.015817
    province_state: North-Rhine-Westphalia
    town_city: Essen
    updated_at: '2023-12-12T10:55:17.905482'
  model: postcards.location
  pk: 91
- fields:
    country: ''
    created_at: '2023-12-12T10:55:17.905486'
    latitude: 50.535206
    longitude: 7.041941
    province_state: ''
    town_city: Feldpost
    updated_at: '2023-12-12T10:55:17.905486'
  model: postcards.location
  pk: 92
- fields:
    country: ''
    created_at: '2023-12-12T10:55:17.905490'
    latitude: 46.520697
    longitude: -80.027326
    province_state: ''
    town_city: Field Post Office 251
    updated_at: '2023-12-12T10:55:17.905491'
  model: postcards.location
  pk: 93
- fields:
    country: ''
    created_at: '2023-12-12T10:55:17.905496'
    latitude: 46.520697
    longitude: -80.027326
    province_state: ''
    town_city: Field Post Office 504
    updated_at: '2023-12-12T10:55:17.905496'
  model: postcards.location
  pk: 94
- fields:
    country: ''
    created_at: '2023-12-12T10:55:17.905500'
    latitude: 51.635283
    longitude: 4.467313
    province_state: ''
    town_city: Fijnaart
    updated_at: '2023-12-12T10:55:17.905501'
  model: postcards.location
  pk: 95
- fields:
    country: Netherlands
    created_at: '2023-12-12T10:55:17.905509'
    latitude: 52.33109
    longitude: 5.069628
    province_state: ''
    town_city: Fortress Holland
    updated_at: '2023-12-12T10:55:17.905510'
  model: postcards.location
  pk: 96
- fields:
    country: Switzerland
    created_at: '2023-12-12T10:55:17.905519'
    latitude: 46.201756
    longitude: 6.146601
    province_state: Geneva
    town_city: Geneve
    updated_at: '2023-12-12T10:55:17.905519'
  model: postcards.location
  pk: 97
- fields:
    country: Belgium
    created_at: '2023-12-12T10:55:17.905523'
    latitude: 51.053829
    longitude: 3.725012
    province_state: East Flanders
    town_city: Gent
    updated_at: '2023-12-12T10:55:17.905524'
  model: postcards.location
  pk: 98
- fields:
    country: England
    created_at: '2023-12-12T10:55:17.905528'
    latitude: 51.791921
    longitude: -0.90223
    province_state: Gibraltar
    town_city: Gibraltar
    updated_at: '2023-12-12T10:55:17.905529'
  model: postcards.location
  pk: 99
- fields:
    country: ''
    created_at: '2023-12-12T10:55:17.905533'
    latitude: 51.503103
    longitude: 3.88976
    province_state: ''
    town_city: Goes
    updated_at: '2023-12-12T10:55:17.905534'
  model: postcards.location
  pk: 100
- fields:
    country: Netherlands
    created_at: '2023-12-12T10:55:17.905585'
    latitude: 51.503103
    longitude: 3.88976
    province_state: Zeeland
    town_city: Goes
    updated_at: '2023-12-12T10:55:17.905586'
  model: postcards.location
  pk: 101
- fields:
    country: Netherlands
    created_at: '2023-12-12T10:55:17.905594'
    latitude: 52.232156
    longitude: 6.5809
    province_state: Overjissel
    town_city: Goor
    updated_at: '2023-12-12T10:55:17.905595'
  model: postcards.location
  pk: 102
- fields:
    country: Netherlands
    created_at: '2023-12-12T10:55:17.905599'
    latitude: 51.830215
    longitude: 4.97639
    province_state: South Holland
    town_city: Gorichem
    updated_at: '2023-12-12T10:55:17.905600'
  model: postcards.location
  pk: 103
- fields:
    country: Netherlands
    created_at: '2023-12-12T10:55:17.905603'
    latitude: 51.842187
    longitude: 4.9746
    province_state: South Holland
    town_city: Gorinchem
    updated_at: '2023-12-12T10:55:17.905604'
  model: postcards.location
  pk: 104
- fields:
    country: Netherlands
    created_at: '2023-12-12T10:55:17.905608'
    latitude: 52.018119
    longitude: 4.711122
    province_state: South Holland
    town_city: Gouda
    updated_at: '2023-12-12T10:55:17.905609'
  model: postcards.location
  pk: 105
- fields:
    country: United States
    created_at: '2023-12-12T10:55:17.905613'
    latitude: 42.963243
    longitude: -85.667864
    province_state: Michigan
    town_city: Grand Rapids
    updated_at: '2023-12-12T10:55:17.905613'
  model: postcards.location
  pk: 106
- fields:
    country: ''
    created_at: '2023-12-12T10:55:17.905617'
    latitude: 51.191725
    longitude: 5.858997
    province_state: ''
    town_city: Grathem
    updated_at: '2023-12-12T10:55:17.905618'
  model: postcards.location
  pk: 107
- fields:
    country: Netherlands
    created_at: '2023-12-12T10:55:17.905622'
    latitude: 51.75965
    longitude: 5.741113
    province_state: North Brabant
    town_city: Grave
    updated_at: '2023-12-12T10:55:17.905622'
  model: postcards.location
  pk: 108
- fields:
    country: United States
    created_at: '2023-12-12T10:55:17.905626'
    latitude: 40.767615
    longitude: -73.716828
    province_state: New York
    town_city: Great Neck (Lake Success)
    updated_at: '2023-12-12T10:55:17.905627'
  model: postcards.location
  pk: 109
- fields:
    country: Netherlands
    created_at: '2023-12-12T10:55:17.905631'
    latitude: 51.534067
    longitude: 3.561083
    province_state: Groningen
    town_city: Grijpskerke
    updated_at: '2023-12-12T10:55:17.905632'
  model: postcards.location
  pk: 110
- fields:
    country: Netherlands
    created_at: '2023-12-12T10:55:17.905636'
    latitude: 53.219065
    longitude: 6.568008
    province_state: North Holland
    town_city: Groningen
    updated_at: '2023-12-12T10:55:17.905637'
  model: postcards.location
  pk: 111
- fields:
    country: Netherlands
    created_at: '2023-12-12T10:55:17.905640'
    latitude: 53.219065
    longitude: 6.568008
    province_state: Groningen
    town_city: Groningen
    updated_at: '2023-12-12T10:55:17.905641'
  model: postcards.location
  pk: 112
- fields:
    country: ''
    created_at: '2023-12-12T10:55:17.905648'
    latitude: 53.219065
    longitude: 6.568008
    province_state: ''
    town_city: Groningen
    updated_at: '2023-12-12T10:55:17.905649'
  model: postcards.location
  pk: 113
- fields:
    country: Netherlands
    created_at: '2023-12-12T10:55:17.905657'
    latitude: 51.603613
    longitude: 5.227228
    province_state: North Brabant
    town_city: Haaren
    updated_at: '2023-12-12T10:55:17.905658'
  model: postcards.location
  pk: 114
- fields:
    country: ''
    created_at: '2023-12-12T10:55:17.905662'
    latitude: 52.388532
    longitude: 4.638805
    province_state: ''
    town_city: Haarlem
    updated_at: '2023-12-12T10:55:17.905663'
  model: postcards.location
  pk: 115
- fields:
    country: Netherlands
    created_at: '2023-12-12T10:55:17.905667'
    latitude: 52.383706
    longitude: 4.64356
    province_state: North Holland
    town_city: Haarlem
    updated_at: '2023-12-12T10:55:17.905668'
  model: postcards.location
  pk: 116
- fields:
    country: ''
    created_at: '2023-12-12T10:55:17.905686'
    latitude: 51.121646
    longitude: 2.638316
    province_state: ''
    town_city: Haelen (L.b.)
    updated_at: '2023-12-12T10:55:17.905687'
  model: postcards.location
  pk: 117
- fields:
    country: Netherlands
    created_at: '2023-12-12T10:55:17.905691'
    latitude: 52.382606
    longitude: 4.75469
    province_state: North Holland
    town_city: Halfweg
    updated_at: '2023-12-12T10:55:17.905691'
  model: postcards.location
  pk: 118
- fields:
    country: Germany
    created_at: '2023-12-12T10:55:17.905695'
    latitude: 53.550341
    longitude: 10.000654
    province_state: Hamburg
    town_city: Hamburg
    updated_at: '2023-12-12T10:55:17.905696'
  model: postcards.location
  pk: 119
- fields:
    country: Netherlands
    created_at: '2023-12-12T10:55:17.905700'
    latitude: 51.821131
    longitude: 4.888808
    province_state: South Holland
    town_city: Hardinxveld
    updated_at: '2023-12-12T10:55:17.905701'
  model: postcards.location
  pk: 120
- fields:
    country: Netherlands
    created_at: '2023-12-12T10:55:17.905704'
    latitude: 52.09145
    longitude: 4.963963
    province_state: Utrecht
    town_city: Harmelen
    updated_at: '2023-12-12T10:55:17.905705'
  model: postcards.location
  pk: 121
- fields:
    country: ''
    created_at: '2023-12-12T10:55:17.905718'
    latitude: 50.877524
    longitude: 5.981507
    province_state: ''
    town_city: Heerlen
    updated_at: '2023-12-12T10:55:17.905719'
  model: postcards.location
  pk: 122
- fields:
    country: Netherlands
    created_at: '2023-12-12T10:55:17.905722'
    latitude: 50.877524
    longitude: 5.981507
    province_state: Limburg
    town_city: Heerlen
    updated_at: '2023-12-12T10:55:17.905723'
  model: postcards.location
  pk: 123
- fields:
    country: Netherlands
    created_at: '2023-12-12T10:55:17.905732'
    latitude: 51.833921
    longitude: 4.143674
    province_state: South Holland
    town_city: Hellevoetsluis
    updated_at: '2023-12-12T10:55:17.905732'
  model: postcards.location
  pk: 124
- fields:
    country: ''
    created_at: '2023-12-12T10:55:17.905736'
    latitude: 51.479096
    longitude: 5.655769
    province_state: ''
    town_city: Helmond
    updated_at: '2023-12-12T10:55:17.905737'
  model: postcards.location
  pk: 125
- fields:
    country: Netherlands
    created_at: '2023-12-12T10:55:17.905741'
    latitude: 51.473568
    longitude: 5.667109
    province_state: North Brabant
    town_city: Helmond
    updated_at: '2023-12-12T10:55:17.905741'
  model: postcards.location
  pk: 126
- fields:
    country: Netherlands
    created_at: '2023-12-12T10:55:17.905745'
    latitude: 51.688886
    longitude: 5.165507
    province_state: North Brabant
    town_city: Heusden
    updated_at: '2023-12-12T10:55:17.905746'
  model: postcards.location
  pk: 127
- fields:
    country: Germany
    created_at: '2023-12-12T10:55:17.905750'
    latitude: 50.426633
    longitude: 10.730026
    province_state: "Th\xFCringen"
    town_city: Hildburghausen
    updated_at: '2023-12-12T10:55:17.905751'
  model: postcards.location
  pk: 128
- fields:
    country: ''
    created_at: '2023-12-12T10:55:17.905755'
    latitude: 52.294826
    longitude: 4.572971
    province_state: ''
    town_city: Hillegom
    updated_at: '2023-12-12T10:55:17.905755'
  model: postcards.location
  pk: 129
- fields:
    country: Netherlands
    created_at: '2023-12-12T10:55:17.905759'
    latitude: 52.294826
    longitude: 4.572971
    province_state: South Holland
    town_city: Hillegom
    updated_at: '2023-12-12T10:55:17.905760'
  model: postcards.location
  pk: 130
- fields:
    country: ''
    created_at: '2023-12-12T10:55:17.905764'
    latitude: 52.224138
    longitude: 5.17194
    province_state: ''
    town_city: Hilversum
    updated_at: '2023-12-12T10:55:17.905765'
  model: postcards.location
  pk: 131
- fields:
    country: Netherlands
    created_at: '2023-12-12T10:55:17.905768'
    latitude: 52.231587
    longitude: 5.173494
    province_state: North Holland
    town_city: Hilversum
    updated_at: '2023-12-12T10:55:17.905769'
  model: postcards.location
  pk: 132
- fields:
    country: ''
    created_at: '2023-12-12T10:55:17.905773'
    latitude: 50.930792
    longitude: 5.935023
    province_state: ''
    town_city: Hoensbroek-Treebeek
    updated_at: '2023-12-12T10:55:17.905773'
  model: postcards.location
  pk: 133
- fields:
    country: Netherlands
    created_at: '2023-12-12T10:55:17.905777'
    latitude: 52.051864
    longitude: 4.271581
    province_state: Midden-Drenthe
    town_city: Hooghalen Oost
    updated_at: '2023-12-12T10:55:17.905778'
  model: postcards.location
  pk: 134
- fields:
    country: Netherlands
    created_at: '2023-12-12T10:55:17.905782'
    latitude: 52.187247
    longitude: 5.376222
    province_state: Utrecht
    town_city: Hoogland
    updated_at: '2023-12-12T10:55:17.905783'
  model: postcards.location
  pk: 135
- fields:
    country: United States
    created_at: '2023-12-12T10:55:17.905791'
    latitude: 42.974705
    longitude: -96.318346
    province_state: Iowa
    town_city: Ireton
    updated_at: '2023-12-12T10:55:17.905792'
  model: postcards.location
  pk: 136
- fields:
    country: United States
    created_at: '2023-12-12T10:55:17.905796'
    latitude: 40.755656
    longitude: -73.885776
    province_state: Long Island/New York
    town_city: Jackson Heights
    updated_at: '2023-12-12T10:55:17.905797'
  model: postcards.location
  pk: 137
- fields:
    country: Netherlands
    created_at: '2023-12-12T10:55:17.905810'
    latitude: 52.204898
    longitude: 4.396598
    province_state: ''
    town_city: Katwijk aan zee
    updated_at: '2023-12-12T10:55:17.905810'
  model: postcards.location
  pk: 138
- fields:
    country: England
    created_at: '2023-12-12T10:55:17.905814'
    latitude: 52.119201
    longitude: -0.493015
    province_state: Bedfordshire
    town_city: Kempston
    updated_at: '2023-12-12T10:55:17.905815'
  model: postcards.location
  pk: 139
- fields:
    country: Netherlands
    created_at: '2023-12-12T10:55:17.905819'
    latitude: 50.874909
    longitude: 6.059385
    province_state: Limburg
    town_city: Kerkrade
    updated_at: '2023-12-12T10:55:17.905820'
  model: postcards.location
  pk: 140
- fields:
    country: ''
    created_at: '2023-12-12T10:55:17.905823'
    latitude: 49.786104
    longitude: 7.458404
    province_state: ''
    town_city: Kirn
    updated_at: '2023-12-12T10:55:17.905824'
  model: postcards.location
  pk: 141
- fields:
    country: Germany
    created_at: '2023-12-12T10:55:17.905828'
    latitude: 49.786104
    longitude: 7.458404
    province_state: Rheinland-Pfalz
    town_city: Kirn
    updated_at: '2023-12-12T10:55:17.905829'
  model: postcards.location
  pk: 142
- fields:
    country: Switzerland
    created_at: '2023-12-12T10:55:17.905832'
    latitude: 46.868288
    longitude: 9.88216
    province_state: Graubunden
    town_city: Klosters-platz
    updated_at: '2023-12-12T10:55:17.905833'
  model: postcards.location
  pk: 143
- fields:
    country: Netherlands
    created_at: '2023-12-12T10:55:17.905837'
    latitude: 51.228964
    longitude: 3.970215
    province_state: Zeeland
    town_city: Koewacht
    updated_at: '2023-12-12T10:55:17.905838'
  model: postcards.location
  pk: 144
- fields:
    country: ''
    created_at: '2023-12-12T10:55:17.905841'
    latitude: 47.855662
    longitude: 12.05958
    province_state: ''
    town_city: Kolbermoor
    updated_at: '2023-12-12T10:55:17.905842'
  model: postcards.location
  pk: 145
- fields:
    country: Denmark
    created_at: '2023-12-12T10:55:17.905851'
    latitude: 55.686724
    longitude: 12.570072
    province_state: Kopenhagen
    town_city: Kopenhagen V
    updated_at: '2023-12-12T10:55:17.905851'
  model: postcards.location
  pk: 146
- fields:
    country: Poland
    created_at: '2023-12-12T10:55:17.905855'
    latitude: 50.046943
    longitude: 19.997153
    province_state: Krakow
    town_city: Krakau
    updated_at: '2023-12-12T10:55:17.905856'
  model: postcards.location
  pk: 147
- fields:
    country: Netherlands
    created_at: '2023-12-12T10:55:17.905860'
    latitude: 52.495456
    longitude: 4.766495
    province_state: North Holland
    town_city: Krommenie
    updated_at: '2023-12-12T10:55:17.905861'
  model: postcards.location
  pk: 148
- fields:
    country: Netherlands
    created_at: '2023-12-12T10:55:17.905864'
    latitude: 52.102046
    longitude: 4.298201
    province_state: South Holland
    town_city: La Haye (Den Haag)
    updated_at: '2023-12-12T10:55:17.905865'
  model: postcards.location
  pk: 149
- fields:
    country: ''
    created_at: '2023-12-12T10:55:17.905869'
    latitude: 51.708939
    longitude: 4.704323
    province_state: ''
    town_city: Lage Zwaluwe
    updated_at: '2023-12-12T10:55:17.905870'
  model: postcards.location
  pk: 150
- fields:
    country: Netherlands
    created_at: '2023-12-12T10:55:17.905873'
    latitude: 51.708939
    longitude: 4.704323
    province_state: North Brabant
    town_city: Lage-Zwaluwe
    updated_at: '2023-12-12T10:55:17.905874'
  model: postcards.location
  pk: 151
- fields:
    country: United States
    created_at: '2023-12-12T10:55:17.905878'
    latitude: 40.927877
    longitude: -73.751798
    province_state: New York
    town_city: Larchmont
    updated_at: '2023-12-12T10:55:17.905878'
  model: postcards.location
  pk: 152
- fields:
    country: Netherlands
    created_at: '2023-12-12T10:55:17.905882'
    latitude: 52.256589
    longitude: 5.225193
    province_state: North Holland
    town_city: Laren
    updated_at: '2023-12-12T10:55:17.905883'
  model: postcards.location
  pk: 153
- fields:
    country: Switzerland
    created_at: '2023-12-12T10:55:17.905887'
    latitude: 46.521827
    longitude: 6.632703
    province_state: Vaud
    town_city: Lausanne
    updated_at: '2023-12-12T10:55:17.905887'
  model: postcards.location
  pk: 154
- fields:
    country: Netherlands
    created_at: '2023-12-12T10:55:17.905891'
    latitude: 51.907474
    longitude: 5.051215
    province_state: Utrecht
    town_city: Leerbroek
    updated_at: '2023-12-12T10:55:17.905892'
  model: postcards.location
  pk: 155
- fields:
    country: ''
    created_at: '2023-12-12T10:55:17.905895'
    latitude: 53.200594
    longitude: 5.791855
    province_state: ''
    town_city: Leeuwarden
    updated_at: '2023-12-12T10:55:17.905896'
  model: postcards.location
  pk: 156
- fields:
    country: ''
    created_at: '2023-12-12T10:55:17.905900'
    latitude: 53.196477
    longitude: 5.792985
    province_state: ''
    town_city: Leeuwarden- Station
    updated_at: '2023-12-12T10:55:17.905901'
  model: postcards.location
  pk: 157
- fields:
    country: ''
    created_at: '2023-12-12T10:55:17.905906'
    latitude: 53.196477
    longitude: 5.792985
    province_state: ''
    town_city: Leeuwarden-Station
    updated_at: '2023-12-12T10:55:17.905907'
  model: postcards.location
  pk: 158
- fields:
    country: Netherlands
    created_at: '2023-12-12T10:55:17.905911'
    latitude: 52.159475
    longitude: 4.490884
    province_state: South Holland
    town_city: Leiden
    updated_at: '2023-12-12T10:55:17.905911'
  model: postcards.location
  pk: 159
- fields:
    country: Netherlands
    created_at: '2023-12-12T10:55:17.905916'
    latitude: 52.086165
    longitude: 4.394677
    province_state: South Holland
    town_city: Leidschendam
    updated_at: '2023-12-12T10:55:17.905917'
  model: postcards.location
  pk: 160
- fields:
    country: ''
    created_at: '2023-12-12T10:55:17.905922'
    latitude: 52.086165
    longitude: 4.394677
    province_state: ''
    town_city: Leidschendam
    updated_at: '2023-12-12T10:55:17.905923'
  model: postcards.location
  pk: 161
- fields:
    country: Germany
    created_at: '2023-12-12T10:55:17.905928'
    latitude: 51.340632
    longitude: 12.374733
    province_state: Saxony
    town_city: Leipzig
    updated_at: '2023-12-12T10:55:17.905928'
  model: postcards.location
  pk: 162
- fields:
    country: Netherlands
    created_at: '2023-12-12T10:55:17.905932'
    latitude: 51.20152
    longitude: 5.90463
    province_state: Gelderland
    town_city: Limburg
    updated_at: '2023-12-12T10:55:17.905933'
  model: postcards.location
  pk: 163
- fields:
    country: Portugal
    created_at: '2023-12-12T10:55:17.905937'
    latitude: 38.714225
    longitude: -9.140899
    province_state: Estremadura
    town_city: Lisboa Central
    updated_at: '2023-12-12T10:55:17.905938'
  model: postcards.location
  pk: 164
- fields:
    country: Netherlands
    created_at: '2023-12-12T10:55:17.905941'
    latitude: 52.11748
    longitude: 6.018526
    province_state: Gelderland
    town_city: Loenen
    updated_at: '2023-12-12T10:55:17.905942'
  model: postcards.location
  pk: 165
- fields:
    country: England
    created_at: '2023-12-12T10:55:17.905946'
    latitude: 51.507336
    longitude: -0.12765
    province_state: London
    town_city: London
    updated_at: '2023-12-12T10:55:17.905947'
  model: postcards.location
  pk: 166
- fields:
    country: ''
    created_at: '2023-12-12T10:55:17.905950'
    latitude: 51.489334
    longitude: -0.144055
    province_state: ''
    town_city: London
    updated_at: '2023-12-12T10:55:17.905951'
  model: postcards.location
  pk: 167
- fields:
    country: England
    created_at: '2023-12-12T10:55:17.905969'
    latitude: 51.507336
    longitude: -0.12765
    province_state: London
    town_city: London W1
    updated_at: '2023-12-12T10:55:17.905970'
  model: postcards.location
  pk: 168
- fields:
    country: Netherlands
    created_at: '2023-12-12T10:55:17.905974'
    latitude: 52.053157
    longitude: 4.234829
    province_state: South Holland
    town_city: Loosduinen
    updated_at: '2023-12-12T10:55:17.905975'
  model: postcards.location
  pk: 169
- fields:
    country: Germany
    created_at: '2023-12-12T10:55:17.905979'
    latitude: 49.470411
    longitude: 8.438157
    province_state: Rhineland-Palatinate Land
    town_city: Ludwigshafen am Rhein
    updated_at: '2023-12-12T10:55:17.905980'
  model: postcards.location
  pk: 170
- fields:
    country: ''
    created_at: '2023-12-12T10:55:17.905993'
    latitude: 50.851244
    longitude: 5.690977
    province_state: ''
    town_city: Maastricht
    updated_at: '2023-12-12T10:55:17.905994'
  model: postcards.location
  pk: 171
- fields:
    country: Netherlands
    created_at: '2023-12-12T10:55:17.905998'
    latitude: 50.857985
    longitude: 5.696988
    province_state: Limburg
    town_city: Maastricht
    updated_at: '2023-12-12T10:55:17.905998'
  model: postcards.location
  pk: 172
- fields:
    country: Spain
    created_at: '2023-12-12T10:55:17.906003'
    latitude: 40.416705
    longitude: -3.703583
    province_state: Madrid
    town_city: Madrid
    updated_at: '2023-12-12T10:55:17.906003'
  model: postcards.location
  pk: 173
- fields:
    country: Spain
    created_at: '2023-12-12T10:55:17.906008'
    latitude: 36.721303
    longitude: -4.421637
    province_state: Andalusia
    town_city: Malaga
    updated_at: '2023-12-12T10:55:17.906009'
  model: postcards.location
  pk: 174
- fields:
    country: Germany
    created_at: '2023-12-12T10:55:17.906013'
    latitude: 49.489291
    longitude: 8.46731
    province_state: Karlsruhe
    town_city: Mannheim
    updated_at: '2023-12-12T10:55:17.906013'
  model: postcards.location
  pk: 175
- fields:
    country: Venezuela
    created_at: '2023-12-12T10:55:17.906017'
    latitude: 10.64981
    longitude: -71.64436
    province_state: Zulia
    town_city: Maracaibo
    updated_at: '2023-12-12T10:55:17.906018'
  model: postcards.location
  pk: 176
- fields:
    country: ''
    created_at: '2023-12-12T10:55:17.906022'
    latitude: 46.161157
    longitude: -1.16262
    province_state: ''
    town_city: Maritime Mail
    updated_at: '2023-12-12T10:55:17.906023'
  model: postcards.location
  pk: 177
- fields:
    country: ''
    created_at: '2023-12-12T10:55:17.906027'
    latitude: 48.240406
    longitude: 14.516267
    province_state: ''
    town_city: Mauthausen
    updated_at: '2023-12-12T10:55:17.906027'
  model: postcards.location
  pk: 178
- fields:
    country: Belgium
    created_at: '2023-12-12T10:55:17.906031'
    latitude: 51.028138
    longitude: 4.480345
    province_state: Antwerp
    town_city: Mechelen
    updated_at: '2023-12-12T10:55:17.906032'
  model: postcards.location
  pk: 179
- fields:
    country: Netherlands
    created_at: '2023-12-12T10:55:17.906036'
    latitude: 50.904709
    longitude: 5.735208
    province_state: Limburg
    town_city: Meerssen
    updated_at: '2023-12-12T10:55:17.906036'
  model: postcards.location
  pk: 180
- fields:
    country: Italy
    created_at: '2023-12-12T10:55:17.906040'
    latitude: 46.669555
    longitude: 11.159419
    province_state: Bolzano
    town_city: Merano
    updated_at: '2023-12-12T10:55:17.906041'
  model: postcards.location
  pk: 181
- fields:
    country: ''
    created_at: '2023-12-12T10:55:17.906045'
    latitude: 51.499678
    longitude: 3.613737
    province_state: ''
    town_city: Middelburg
    updated_at: '2023-12-12T10:55:17.906045'
  model: postcards.location
  pk: 182
- fields:
    country: Netherlands
    created_at: '2023-12-12T10:55:17.906049'
    latitude: 51.499678
    longitude: 3.613737
    province_state: Zeeland
    town_city: Middelburg
    updated_at: '2023-12-12T10:55:17.906050'
  model: postcards.location
  pk: 183
- fields:
    country: Italy
    created_at: '2023-12-12T10:55:17.906054'
    latitude: 45.464194
    longitude: 9.189635
    province_state: Milano
    town_city: Milan
    updated_at: '2023-12-12T10:55:17.906055'
  model: postcards.location
  pk: 184
- fields:
    country: Hungary
    created_at: '2023-12-12T10:55:17.906058'
    latitude: 48.103064
    longitude: 20.790043
    province_state: Northern Hungary
    town_city: Miskolc
    updated_at: '2023-12-12T10:55:17.906059'
  model: postcards.location
  pk: 185
- fields:
    country: Netherlands
    created_at: '2023-12-12T10:55:17.906063'
    latitude: 51.986507
    longitude: 4.669831
    province_state: South Holland
    town_city: Moordrecht
    updated_at: '2023-12-12T10:55:17.906064'
  model: postcards.location
  pk: 186
- fields:
    country: ''
    created_at: '2023-12-12T10:55:17.906068'
    latitude: 50.868179
    longitude: 10.825142
    province_state: ''
    town_city: "M\xFChlberg"
    updated_at: '2023-12-12T10:55:17.906069'
  model: postcards.location
  pk: 187
- fields:
    country: Netherlands
    created_at: '2023-12-12T10:55:17.906073'
    latitude: 51.924154
    longitude: 4.478633
    province_state: North Holland
    town_city: ''
    updated_at: '2023-12-12T10:55:17.906074'
  model: postcards.location
  pk: 188
- fields:
    country: Netherlands
    created_at: '2023-12-12T10:55:17.906077'
    latitude: 51.924154
    longitude: 4.478633
    province_state: ''
    town_city: ''
    updated_at: '2023-12-12T10:55:17.906078'
  model: postcards.location
  pk: 189
- fields:
    country: ''
    created_at: '2023-12-12T10:55:17.906092'
    latitude: 51.162826
    longitude: 5.802829
    province_state: ''
    town_city: Neeritter
    updated_at: '2023-12-12T10:55:17.906093'
  model: postcards.location
  pk: 190
- fields:
    country: United States
    created_at: '2023-12-12T10:55:17.906097'
    latitude: 40.712728
    longitude: -74.006015
    province_state: NewYork
    town_city: New York
    updated_at: '2023-12-12T10:55:17.906097'
  model: postcards.location
  pk: 191
- fields:
    country: United States
    created_at: '2023-12-12T10:55:17.906101'
    latitude: 40.712728
    longitude: -74.006015
    province_state: New York
    town_city: New York
    updated_at: '2023-12-12T10:55:17.906102'
  model: postcards.location
  pk: 192
- fields:
    country: Netherlands
    created_at: '2023-12-12T10:55:17.906106'
    latitude: 51.293205
    longitude: 4.162282
    province_state: Zeeland
    town_city: Nieuw Namen
    updated_at: '2023-12-12T10:55:17.906107'
  model: postcards.location
  pk: 193
- fields:
    country: Netherlands
    created_at: '2023-12-12T10:55:17.906110'
    latitude: 51.714193
    longitude: 4.164818
    province_state: South Holland
    town_city: Nieuwe Tonge
    updated_at: '2023-12-12T10:55:17.906111'
  model: postcards.location
  pk: 194
- fields:
    country: Netherlands
    created_at: '2023-12-12T10:55:17.906115'
    latitude: 51.854575
    longitude: 4.143859
    province_state: South Holland
    town_city: Nieuwenhoorn
    updated_at: '2023-12-12T10:55:17.906116'
  model: postcards.location
  pk: 195
- fields:
    country: ''
    created_at: '2023-12-12T10:55:17.906119'
    latitude: 52.196668
    longitude: 5.007771
    province_state: ''
    town_city: Nieuwersluis
    updated_at: '2023-12-12T10:55:17.906120'
  model: postcards.location
  pk: 196
- fields:
    country: Netherlands
    created_at: '2023-12-12T10:55:17.906124'
    latitude: 51.69124
    longitude: 5.180521
    province_state: North Brabant
    town_city: Nieuwkuijk
    updated_at: '2023-12-12T10:55:17.906125'
  model: postcards.location
  pk: 197
- fields:
    country: Netherlands
    created_at: '2023-12-12T10:55:17.906128'
    latitude: 51.842575
    longitude: 5.838961
    province_state: ''
    town_city: Nijmegen
    updated_at: '2023-12-12T10:55:17.906129'
  model: postcards.location
  pk: 198
- fields:
    country: Netherlands
    created_at: '2023-12-12T10:55:17.906133'
    latitude: 51.842575
    longitude: 5.838961
    province_state: Gelderland
    town_city: Nijmegen
    updated_at: '2023-12-12T10:55:17.906134'
  model: postcards.location
  pk: 199
- fields:
    country: Netherlands
    created_at: '2023-12-12T10:55:17.906137'
    latitude: 51.601772
    longitude: 5.444139
    province_state: Netherlands
    town_city: North Brabant
    updated_at: '2023-12-12T10:55:17.906138'
  model: postcards.location
  pk: 200
- fields:
    country: Netherlands
    created_at: '2023-12-12T10:55:17.906142'
    latitude: 52.183367
    longitude: 4.472129
    province_state: South Holland
    town_city: Oegstgeest
    updated_at: '2023-12-12T10:55:17.906143'
  model: postcards.location
  pk: 201
- fields:
    country: Netherlands
    created_at: '2023-12-12T10:55:17.906152'
    latitude: 51.488962
    longitude: 5.300595
    province_state: North Brabant
    town_city: Oirschot
    updated_at: '2023-12-12T10:55:17.906153'
  model: postcards.location
  pk: 202
- fields:
    country: ''
    created_at: '2023-12-12T10:55:17.906156'
    latitude: 51.02945
    longitude: 7.843911
    province_state: ''
    town_city: Olpe
    updated_at: '2023-12-12T10:55:17.906157'
  model: postcards.location
  pk: 203
- fields:
    country: Germany
    created_at: '2023-12-12T10:55:17.906161'
    latitude: 51.02945
    longitude: 7.843911
    province_state: North Rhine Westphalia
    town_city: Olpe
    updated_at: '2023-12-12T10:55:17.906162'
  model: postcards.location
  pk: 204
- fields:
    country: Canada
    created_at: '2023-12-12T10:55:17.906166'
    latitude: 50.000678
    longitude: -86.000977
    province_state: Ontario
    town_city: Ontario
    updated_at: '2023-12-12T10:55:17.906167'
  model: postcards.location
  pk: 205
- fields:
    country: Netherlands
    created_at: '2023-12-12T10:55:17.906170'
    latitude: 51.682349
    longitude: 4.347306
    province_state: South Holland
    town_city: Ooltgensplaat
    updated_at: '2023-12-12T10:55:17.906171'
  model: postcards.location
  pk: 206
- fields:
    country: Netherlands
    created_at: '2023-12-12T10:55:17.906179'
    latitude: 53.134328
    longitude: 6.060079
    province_state: Friesland
    town_city: Opeinde
    updated_at: '2023-12-12T10:55:17.906180'
  model: postcards.location
  pk: 207
- fields:
    country: Netherlands
    created_at: '2023-12-12T10:55:17.906189'
    latitude: 51.778354
    longitude: 5.532084
    province_state: North Brabant
    town_city: Oss
    updated_at: '2023-12-12T10:55:17.906189'
  model: postcards.location
  pk: 208
- fields:
    country: Canada
    created_at: '2023-12-12T10:55:17.906193'
    latitude: 45.420878
    longitude: -75.690111
    province_state: Ontario
    town_city: Ottawa
    updated_at: '2023-12-12T10:55:17.906194'
  model: postcards.location
  pk: 209
- fields:
    country: Italy
    created_at: '2023-12-12T10:55:17.906207'
    latitude: 38.111227
    longitude: 13.352443
    province_state: Sicily
    town_city: Palermo
    updated_at: '2023-12-12T10:55:17.906208'
  model: postcards.location
  pk: 210
- fields:
    country: Surinam
    created_at: '2023-12-12T10:55:17.906212'
    latitude: 5.824176
    longitude: -55.166281
    province_state: Dutch Guiana (old)
    town_city: Paramaribo
    updated_at: '2023-12-12T10:55:17.906213'
  model: postcards.location
  pk: 211
- fields:
    country: France
    created_at: '2023-12-12T10:55:17.906217'
    latitude: 48.853495
    longitude: 2.348392
    province_state: "\xCEle de France"
    town_city: Paris
    updated_at: '2023-12-12T10:55:17.906218'
  model: postcards.location
  pk: 212
- fields:
    country: France
    created_at: '2023-12-12T10:55:17.906222'
    latitude: 48.853495
    longitude: 2.348392
    province_state: Paris
    town_city: Paris
    updated_at: '2023-12-12T10:55:17.906223'
  model: postcards.location
  pk: 213
- fields:
    country: France
    created_at: '2023-12-12T10:55:17.906227'
    latitude: 46.541284
    longitude: 4.534342
    province_state: Haute-Savoie
    town_city: Passy
    updated_at: '2023-12-12T10:55:17.906227'
  model: postcards.location
  pk: 214
- fields:
    country: Greece
    created_at: '2023-12-12T10:55:17.906236'
    latitude: 38.246242
    longitude: 21.735085
    province_state: Western Greece
    town_city: Patras
    updated_at: '2023-12-12T10:55:17.906237'
  model: postcards.location
  pk: 215
- fields:
    country: Netherlands
    created_at: '2023-12-12T10:55:17.906245'
    latitude: 51.857753
    longitude: 4.39141
    province_state: South Holland
    town_city: Poortugaal
    updated_at: '2023-12-12T10:55:17.906246'
  model: postcards.location
  pk: 216
- fields:
    country: Netherlands
    created_at: '2023-12-12T10:55:17.906254'
    latitude: 51.577253
    longitude: 4.739287
    province_state: North Brabant
    town_city: Princenhage Breda
    updated_at: '2023-12-12T10:55:17.906255'
  model: postcards.location
  pk: 217
- fields:
    country: Netherlands
    created_at: '2023-12-12T10:55:17.906259'
    latitude: 52.502479
    longitude: 4.961483
    province_state: North Holland
    town_city: Purmerend
    updated_at: '2023-12-12T10:55:17.906260'
  model: postcards.location
  pk: 218
- fields:
    country: Netherlands
    created_at: '2023-12-12T10:55:17.906263'
    latitude: 52.24773
    longitude: 5.578274
    province_state: Gelderland
    town_city: Putten
    updated_at: '2023-12-12T10:55:17.906264'
  model: postcards.location
  pk: 219
- fields:
    country: Netherlands
    created_at: '2023-12-12T10:55:17.906268'
    latitude: 51.696135
    longitude: 4.874589
    province_state: North Brabant
    town_city: Raamsdonksveer
    updated_at: '2023-12-12T10:55:17.906269'
  model: postcards.location
  pk: 220
- fields:
    country: France
    created_at: '2023-12-12T10:55:17.906272'
    latitude: 46.61409
    longitude: -1.658546
    province_state: Seine et Oise
    town_city: Rainay
    updated_at: '2023-12-12T10:55:17.906273'
  model: postcards.location
  pk: 221
- fields:
    country: ''
    created_at: '2023-12-12T10:55:17.906282'
    latitude: 51.856995
    longitude: 4.423682
    province_state: ''
    town_city: Rhoon
    updated_at: '2023-12-12T10:55:17.906282'
  model: postcards.location
  pk: 222
- fields:
    country: Netherlands
    created_at: '2023-12-12T10:55:17.906293'
    latitude: 51.19339
    longitude: 5.988265
    province_state: Limburg
    town_city: Roermond
    updated_at: '2023-12-12T10:55:17.906294'
  model: postcards.location
  pk: 223
- fields:
    country: ''
    created_at: '2023-12-12T10:55:17.906298'
    latitude: 51.264149
    longitude: 5.925449
    province_state: ''
    town_city: Roggel
    updated_at: '2023-12-12T10:55:17.906299'
  model: postcards.location
  pk: 224
- fields:
    country: Italy
    created_at: '2023-12-12T10:55:17.906302'
    latitude: 41.89332
    longitude: 12.482932
    province_state: Rome/Lazio
    town_city: Roma
    updated_at: '2023-12-12T10:55:17.906303'
  model: postcards.location
  pk: 225
- fields:
    country: Italy
    created_at: '2023-12-12T10:55:17.906307'
    latitude: 41.89332
    longitude: 12.482932
    province_state: Roma
    town_city: Roma
    updated_at: '2023-12-12T10:55:17.906308'
  model: postcards.location
  pk: 226
- fields:
    country: Netherlands
    created_at: '2023-12-12T10:55:17.906312'
    latitude: 53.419813
    longitude: 6.766377
    province_state: Groningen
    town_city: Roodeschool
    updated_at: '2023-12-12T10:55:17.906312'
  model: postcards.location
  pk: 227
- fields:
    country: Netherlands
    created_at: '2023-12-12T10:55:17.906316'
    latitude: 51.533148
    longitude: 4.456128
    province_state: North Holland
    town_city: Roosendaal
    updated_at: '2023-12-12T10:55:17.906317'
  model: postcards.location
  pk: 228
- fields:
    country: ''
    created_at: '2023-12-12T10:55:17.906328'
    latitude: 51.924442
    longitude: 4.47775
    province_state: South Holland
    town_city: Rotterdam
    updated_at: '2023-12-12T10:55:17.906329'
  model: postcards.location
  pk: 229
- fields:
    country: Netherlands
    created_at: '2023-12-12T10:55:17.906333'
    latitude: 51.924442
    longitude: 4.47775
    province_state: South Holland
    town_city: Rotterdam
    updated_at: '2023-12-12T10:55:17.906334'
  model: postcards.location
  pk: 230
- fields:
    country: ''
    created_at: '2023-12-12T10:55:17.906337'
    latitude: 59.348243
    longitude: 18.111364
    province_state: ''
    town_city: Rotterdam OS
    updated_at: '2023-12-12T10:55:17.906338'
  model: postcards.location
  pk: 231
- fields:
    country: ''
    created_at: '2023-12-12T10:55:17.906347'
    latitude: 52.079984
    longitude: 4.311346
    province_state: ''
    town_city: s Gravenhage
    updated_at: '2023-12-12T10:55:17.906348'
  model: postcards.location
  pk: 232
- fields:
    country: ''
    created_at: '2023-12-12T10:55:17.906352'
    latitude: 51.688939
    longitude: 5.303116
    province_state: ''
    town_city: s Hertogenbosch
    updated_at: '2023-12-12T10:55:17.906353'
  model: postcards.location
  pk: 233
- fields:
    country: Netherlands
    created_at: '2023-12-12T10:55:17.906357'
    latitude: 51.688939
    longitude: 5.303116
    province_state: North Brabant
    town_city: s Hertogenbosch
    updated_at: '2023-12-12T10:55:17.906357'
  model: postcards.location
  pk: 234
- fields:
    country: Netherlands
    created_at: '2023-12-12T10:55:17.906361'
    latitude: 52.074946
    longitude: 4.26968
    province_state: South Holland
    town_city: s-Gravenhage
    updated_at: '2023-12-12T10:55:17.906362'
  model: postcards.location
  pk: 235
- fields:
    country: Netherlands
    created_at: '2023-12-12T10:55:17.906365'
    latitude: 51.459116
    longitude: 3.902288
    province_state: Zeeland
    town_city: s-Gravenpolder
    updated_at: '2023-12-12T10:55:17.906366'
  model: postcards.location
  pk: 236
- fields:
    country: ''
    created_at: '2023-12-12T10:55:17.906370'
    latitude: 51.688939
    longitude: 5.303116
    province_state: ''
    town_city: s-Hertogenbosch
    updated_at: '2023-12-12T10:55:17.906371'
  model: postcards.location
  pk: 237
- fields:
    country: Netherlands
    created_at: '2023-12-12T10:55:17.906374'
    latitude: 51.688939
    longitude: 5.303116
    province_state: North Brabant
    town_city: s-Hertogenbosch
    updated_at: '2023-12-12T10:55:17.906375'
  model: postcards.location
  pk: 238
- fields:
    country: United States
    created_at: '2023-12-12T10:55:17.906379'
    latitude: 38.581061
    longitude: -121.493895
    province_state: California
    town_city: Sacramento
    updated_at: '2023-12-12T10:55:17.906380'
  model: postcards.location
  pk: 239
- fields:
    country: France
    created_at: '2023-12-12T10:55:17.906386'
    latitude: 43.12399
    longitude: 5.822824
    province_state: Provence-Alpes-Cote dAzur
    town_city: Sanary s/mer.
    updated_at: '2023-12-12T10:55:17.906387'
  model: postcards.location
  pk: 240
- fields:
    country: France
    created_at: '2023-12-12T10:55:17.906390'
    latitude: 43.117724
    longitude: 5.800884
    province_state: Var
    town_city: Sanary-sur-Mer
    updated_at: '2023-12-12T10:55:17.906391'
  model: postcards.location
  pk: 241
- fields:
    country: United States
    created_at: '2023-12-12T10:55:17.906395'
    latitude: 34.01947
    longitude: -118.491227
    province_state: California
    town_city: Santa Monica
    updated_at: '2023-12-12T10:55:17.906395'
  model: postcards.location
  pk: 242
- fields:
    country: Netherlands
    created_at: '2023-12-12T10:55:17.906399'
    latitude: 52.106745
    longitude: 4.273694
    province_state: South Holland
    town_city: Scheveningen
    updated_at: '2023-12-12T10:55:17.906400'
  model: postcards.location
  pk: 243
- fields:
    country: ''
    created_at: '2023-12-12T10:55:17.906403'
    latitude: 52.106745
    longitude: 4.273694
    province_state: ''
    town_city: Scheveningen
    updated_at: '2023-12-12T10:55:17.906404'
  model: postcards.location
  pk: 244
- fields:
    country: Netherlands
    created_at: '2023-12-12T10:55:17.906408'
    latitude: 51.960483
    longitude: 4.469536
    province_state: Rotterdam
    town_city: Schiebroek
    updated_at: '2023-12-12T10:55:17.906408'
  model: postcards.location
  pk: 245
- fields:
    country: Netherlands
    created_at: '2023-12-12T10:55:17.906412'
    latitude: 51.91718
    longitude: 4.401915
    province_state: South Holland
    town_city: Schiedam
    updated_at: '2023-12-12T10:55:17.906413'
  model: postcards.location
  pk: 246
- fields:
    country: Netherlands
    created_at: '2023-12-12T10:55:17.906416'
    latitude: 51.946398
    longitude: 4.851643
    province_state: South Holland
    town_city: Schoonhoven
    updated_at: '2023-12-12T10:55:17.906417'
  model: postcards.location
  pk: 247
- fields:
    country: ''
    created_at: '2023-12-12T10:55:17.906420'
    latitude: 47.95392
    longitude: 13.586684
    province_state: ''
    town_city: Seewalchen am Attersee
    updated_at: '2023-12-12T10:55:17.906421'
  model: postcards.location
  pk: 248
- fields:
    country: United States
    created_at: '2023-12-12T10:55:17.906438'
    latitude: 41.473942
    longitude: -81.537067
    province_state: Ohio
    town_city: Shaker Heights
    updated_at: '2023-12-12T10:55:17.906438'
  model: postcards.location
  pk: 249
- fields:
    country: China
    created_at: '2023-12-12T10:55:17.906442'
    latitude: 31.231271
    longitude: 121.470015
    province_state: Jiangsu
    town_city: Shanghai
    updated_at: '2023-12-12T10:55:17.906443'
  model: postcards.location
  pk: 250
- fields:
    country: Netherlands
    created_at: '2023-12-12T10:55:17.906446'
    latitude: 51.564643
    longitude: 5.461
    province_state: North Brabant
    town_city: Sint Oedenrode
    updated_at: '2023-12-12T10:55:17.906447'
  model: postcards.location
  pk: 251
- fields:
    country: Netherlands
    created_at: '2023-12-12T10:55:17.906455'
    latitude: 52.193521
    longitude: 5.279107
    province_state: Utrecht
    town_city: Soestdijk
    updated_at: '2023-12-12T10:55:17.906456'
  model: postcards.location
  pk: 252
- fields:
    country: Netherlands
    created_at: '2023-12-12T10:55:17.906460'
    latitude: 51.464556
    longitude: 3.604206
    province_state: Zeeland
    town_city: Souburg
    updated_at: '2023-12-12T10:55:17.906460'
  model: postcards.location
  pk: 253
- fields:
    country: England
    created_at: '2023-12-12T10:55:17.906464'
    latitude: 50.854144
    longitude: 0.544849
    province_state: Sussex
    town_city: St Leonards on Sea
    updated_at: '2023-12-12T10:55:17.906465'
  model: postcards.location
  pk: 254
- fields:
    country: Netherlands
    created_at: '2023-12-12T10:55:17.906468'
    latitude: 52.804624
    longitude: 6.064613
    province_state: Overijssel
    town_city: Steenwijkerwold
    updated_at: '2023-12-12T10:55:17.906469'
  model: postcards.location
  pk: 255
- fields:
    country: South Africa
    created_at: '2023-12-12T10:55:17.906473'
    latitude: -25.766914
    longitude: 28.199097
    province_state: Gauteng
    town_city: Sunnyside Pretoria
    updated_at: '2023-12-12T10:55:17.906473'
  model: postcards.location
  pk: 256
- fields:
    country: Australia
    created_at: '2023-12-12T10:55:17.906477'
    latitude: -33.869844
    longitude: 151.208285
    province_state: New South Wales
    town_city: Sydney
    updated_at: '2023-12-12T10:55:17.906478'
  model: postcards.location
  pk: 257
- fields:
    country: Netherlands
    created_at: '2023-12-12T10:55:17.906482'
    latitude: 51.298843
    longitude: 3.842204
    province_state: Zeeland
    town_city: Terneuzen
    updated_at: '2023-12-12T10:55:17.906483'
  model: postcards.location
  pk: 258
- fields:
    country: ''
    created_at: '2023-12-12T10:55:17.906486'
    latitude: 52.165412
    longitude: 5.519546
    province_state: ''
    town_city: Terschuur
    updated_at: '2023-12-12T10:55:17.906487'
  model: postcards.location
  pk: 259
- fields:
    country: ''
    created_at: '2023-12-12T10:55:17.906490'
    latitude: 52.281687
    longitude: 6.099803
    province_state: ''
    town_city: Terwolde
    updated_at: '2023-12-12T10:55:17.906491'
  model: postcards.location
  pk: 260
- fields:
    country: ''
    created_at: '2023-12-12T10:55:17.906495'
    latitude: 51.57085
    longitude: 4.076143
    province_state: ''
    town_city: Tholen
    updated_at: '2023-12-12T10:55:17.906495'
  model: postcards.location
  pk: 261
- fields:
    country: Netherlands
    created_at: '2023-12-12T10:55:17.906499'
    latitude: 51.57085
    longitude: 4.076143
    province_state: Zeeland
    town_city: Tholen
    updated_at: '2023-12-12T10:55:17.906500'
  model: postcards.location
  pk: 262
- fields:
    country: Netherlands
    created_at: '2023-12-12T10:55:17.906503'
    latitude: 51.585618
    longitude: 5.066062
    province_state: North Brabant
    town_city: Tilburg
    updated_at: '2023-12-12T10:55:17.906504'
  model: postcards.location
  pk: 263
- fields:
    country: Italy
    created_at: '2023-12-12T10:55:17.906512'
    latitude: 45.067755
    longitude: 7.682489
    province_state: Piedmont
    town_city: Torino
    updated_at: '2023-12-12T10:55:17.906512'
  model: postcards.location
  pk: 264
- fields:
    country: United States
    created_at: '2023-12-12T10:55:17.906516'
    latitude: 40.950376
    longitude: -73.827356
    province_state: New York
    town_city: Tuckahoe
    updated_at: '2023-12-12T10:55:17.906517'
  model: postcards.location
  pk: 265
- fields:
    country: Netherlands
    created_at: '2023-12-12T10:55:17.906520'
    latitude: 50.854042
    longitude: 5.948354
    province_state: Limburg
    town_city: Ubachsberg
    updated_at: '2023-12-12T10:55:17.906521'
  model: postcards.location
  pk: 266
- fields:
    country: Belgium
    created_at: '2023-12-12T10:55:17.906525'
    latitude: 50.803544
    longitude: 4.333845
    province_state: Brussels
    town_city: Uccle
    updated_at: '2023-12-12T10:55:17.906525'
  model: postcards.location
  pk: 267
- fields:
    country: Netherlands
    created_at: '2023-12-12T10:55:17.906529'
    latitude: 51.659089
    longitude: 5.614861
    province_state: North Brabant
    town_city: Uden
    updated_at: '2023-12-12T10:55:17.906530'
  model: postcards.location
  pk: 268
- fields:
    country: ''
    created_at: '2023-12-12T10:55:17.906533'
    latitude: 52.090701
    longitude: 5.121563
    province_state: ''
    town_city: Utrecht
    updated_at: '2023-12-12T10:55:17.906534'
  model: postcards.location
  pk: 269
- fields:
    country: Netherlands
    created_at: '2023-12-12T10:55:17.906537'
    latitude: 52.080986
    longitude: 5.127684
    province_state: Utrecht
    town_city: Utrecht
    updated_at: '2023-12-12T10:55:17.906538'
  model: postcards.location
  pk: 270
- fields:
    country: Netherlands
    created_at: '2023-12-12T10:55:17.906542'
    latitude: 52.089393
    longitude: 5.109821
    province_state: Utrecht
    town_city: Utrecht Station
    updated_at: '2023-12-12T10:55:17.906542'
  model: postcards.location
  pk: 271
- fields:
    country: ''
    created_at: '2023-12-12T10:55:17.906546'
    latitude: 52.078757
    longitude: 5.121878
    province_state: ''
    town_city: Utrecht Station
    updated_at: '2023-12-12T10:55:17.906547'
  model: postcards.location
  pk: 272
- fields:
    country: ''
    created_at: '2023-12-12T10:55:17.906550'
    latitude: 52.078757
    longitude: 5.121878
    province_state: ''
    town_city: Utrecht-Station
    updated_at: '2023-12-12T10:55:17.906551'
  model: postcards.location
  pk: 273
- fields:
    country: Netherlands
    created_at: '2023-12-12T10:55:17.906555'
    latitude: 50.864753
    longitude: 5.831252
    province_state: Limburg
    town_city: Valkenburg
    updated_at: '2023-12-12T10:55:17.906555'
  model: postcards.location
  pk: 274
- fields:
    country: Switzerland
    created_at: '2023-12-12T10:55:17.906559'
    latitude: 46.635696
    longitude: 6.532072
    province_state: Vaud
    town_city: Vaud
    updated_at: '2023-12-12T10:55:17.906559'
  model: postcards.location
  pk: 275
- fields:
    country: Netherlands
    created_at: '2023-12-12T10:55:17.906563'
    latitude: 53.080752
    longitude: 6.877303
    province_state: Groningen
    town_city: Veendam
    updated_at: '2023-12-12T10:55:17.906564'
  model: postcards.location
  pk: 276
- fields:
    country: Netherlands
    created_at: '2023-12-12T10:55:17.906567'
    latitude: 52.023204
    longitude: 5.5518
    province_state: Utrecht
    town_city: Veenendaal
    updated_at: '2023-12-12T10:55:17.906568'
  model: postcards.location
  pk: 277
- fields:
    country: Netherlands
    created_at: '2023-12-12T10:55:17.906571'
    latitude: 51.556404
    longitude: 3.577269
    province_state: Zeeland
    town_city: Veere
    updated_at: '2023-12-12T10:55:17.906572'
  model: postcards.location
  pk: 278
- fields:
    country: Netherlands
    created_at: '2023-12-12T10:55:17.906576'
    latitude: 51.613464
    longitude: 5.544646
    province_state: North Brabant
    town_city: Veghel
    updated_at: '2023-12-12T10:55:17.906576'
  model: postcards.location
  pk: 279
- fields:
    country: Netherlands
    created_at: '2023-12-12T10:55:17.906580'
    latitude: 51.419069
    longitude: 5.404557
    province_state: North Brabant
    town_city: Veldhoven
    updated_at: '2023-12-12T10:55:17.906580'
  model: postcards.location
  pk: 280
- fields:
    country: Netherlands
    created_at: '2023-12-12T10:55:17.906584'
    latitude: 52.036201
    longitude: 5.677303
    province_state: ''
    town_city: Veldpost
    updated_at: '2023-12-12T10:55:17.906585'
  model: postcards.location
  pk: 281
- fields:
    country: Netherlands
    created_at: '2023-12-12T10:55:17.906588'
    latitude: 52.036201
    longitude: 5.677303
    province_state: South Holland
    town_city: Veldpost
    updated_at: '2023-12-12T10:55:17.906589'
  model: postcards.location
  pk: 282
- fields:
    country: Netherlands
    created_at: '2023-12-12T10:55:17.906592'
    latitude: 52.036201
    longitude: 5.677303
    province_state: North Brabant
    town_city: Veldpost
    updated_at: '2023-12-12T10:55:17.906593'
  model: postcards.location
  pk: 283
- fields:
    country: Netherlands
    created_at: '2023-12-12T10:55:17.906601'
    latitude: 52.036201
    longitude: 5.677303
    province_state: ''
    town_city: Veldpost 3
    updated_at: '2023-12-12T10:55:17.906602'
  model: postcards.location
  pk: 284
- fields:
    country: Netherlands
    created_at: '2023-12-12T10:55:17.906610'
    latitude: 52.036265
    longitude: 5.676849
    province_state: ''
    town_city: Veldpost 6
    updated_at: '2023-12-12T10:55:17.906611'
  model: postcards.location
  pk: 285
- fields:
    country: Netherlands
    created_at: '2023-12-12T10:55:17.906615'
    latitude: 52.036201
    longitude: 5.677303
    province_state: ''
    town_city: Veldpost 9
    updated_at: '2023-12-12T10:55:17.906616'
  model: postcards.location
  pk: 286
- fields:
    country: ''
    created_at: '2023-12-12T10:55:17.906659'
    latitude: 51.995867
    longitude: 5.975125
    province_state: ''
    town_city: Velp
    updated_at: '2023-12-12T10:55:17.906660'
  model: postcards.location
  pk: 287
- fields:
    country: Netherlands
    created_at: '2023-12-12T10:55:17.906663'
    latitude: 51.995867
    longitude: 5.975125
    province_state: Gelderland
    town_city: Velp
    updated_at: '2023-12-12T10:55:17.906664'
  model: postcards.location
  pk: 288
- fields:
    country: Netherlands
    created_at: '2023-12-12T10:55:17.906669'
    latitude: 52.45191
    longitude: 4.603891
    province_state: North Holland
    town_city: Velsen
    updated_at: '2023-12-12T10:55:17.906670'
  model: postcards.location
  pk: 289
- fields:
    country: Netherlands
    created_at: '2023-12-12T10:55:17.906685'
    latitude: 51.392449
    longitude: 6.151172
    province_state: Limburg
    town_city: Venlo
    updated_at: '2023-12-12T10:55:17.906686'
  model: postcards.location
  pk: 290
- fields:
    country: France
    created_at: '2023-12-12T10:55:17.906690'
    latitude: 46.123927
    longitude: 3.420371
    province_state: Allies de Lyon-Rhone
    town_city: Vichy
    updated_at: '2023-12-12T10:55:17.906691'
  model: postcards.location
  pk: 291
- fields:
    country: Austria
    created_at: '2023-12-12T10:55:17.906694'
    latitude: 48.208354
    longitude: 16.372504
    province_state: Vienna
    town_city: Vienna
    updated_at: '2023-12-12T10:55:17.906695'
  model: postcards.location
  pk: 292
- fields:
    country: Finland
    created_at: '2023-12-12T10:55:17.906699'
    latitude: 61.104648
    longitude: 25.932402
    province_state: Paijat-Hame
    town_city: Vierumaki
    updated_at: '2023-12-12T10:55:17.906699'
  model: postcards.location
  pk: 293
- fields:
    country: Netherlands
    created_at: '2023-12-12T10:55:17.906707'
    latitude: 52.07032
    longitude: 4.355856
    province_state: South Holland
    town_city: Voorburg
    updated_at: '2023-12-12T10:55:17.906708'
  model: postcards.location
  pk: 294
- fields:
    country: ''
    created_at: '2023-12-12T10:55:17.906712'
    latitude: 52.07032
    longitude: 4.355856
    province_state: ''
    town_city: Voorburg
    updated_at: '2023-12-12T10:55:17.906712'
  model: postcards.location
  pk: 295
- fields:
    country: Netherlands
    created_at: '2023-12-12T10:55:17.906716'
    latitude: 52.125722
    longitude: 4.441017
    province_state: South Holland
    town_city: Voorschoten
    updated_at: '2023-12-12T10:55:17.906717'
  model: postcards.location
  pk: 296
- fields:
    country: ''
    created_at: '2023-12-12T10:55:17.906720'
    latitude: 51.651181
    longitude: 5.2368
    province_state: ''
    town_city: Vught
    updated_at: '2023-12-12T10:55:17.906721'
  model: postcards.location
  pk: 297
- fields:
    country: Netherlands
    created_at: '2023-12-12T10:55:17.906724'
    latitude: 51.651181
    longitude: 5.2368
    province_state: North Brabant
    town_city: Vught
    updated_at: '2023-12-12T10:55:17.906725'
  model: postcards.location
  pk: 298
- fields:
    country: Netherlands
    created_at: '2023-12-12T10:55:17.906729'
    latitude: 51.968582
    longitude: 5.668298
    province_state: Gelderland
    town_city: Wageningen
    updated_at: '2023-12-12T10:55:17.906729'
  model: postcards.location
  pk: 299
- fields:
    country: ''
    created_at: '2023-12-12T10:55:17.906733'
    latitude: 52.02351
    longitude: 4.274586
    province_state: ''
    town_city: Wateringen
    updated_at: '2023-12-12T10:55:17.906734'
  model: postcards.location
  pk: 300
- fields:
    country: Netherlands
    created_at: '2023-12-12T10:55:17.906737'
    latitude: 51.235583
    longitude: 5.70508
    province_state: Limburg
    town_city: Weert
    updated_at: '2023-12-12T10:55:17.906738'
  model: postcards.location
  pk: 301
- fields:
    country: Netherlands
    created_at: '2023-12-12T10:55:17.906743'
    latitude: 52.307259
    longitude: 5.042082
    province_state: North Holland
    town_city: Weesp
    updated_at: '2023-12-12T10:55:17.906744'
  model: postcards.location
  pk: 302
- fields:
    country: Netherlands
    created_at: '2023-12-12T10:55:17.906748'
    latitude: 51.518383
    longitude: 3.995142
    province_state: Zeeland
    town_city: Wemeldinge
    updated_at: '2023-12-12T10:55:17.906748'
  model: postcards.location
  pk: 303
- fields:
    country: Netherlands
    created_at: '2023-12-12T10:55:17.906752'
    latitude: 51.807923
    longitude: 4.898735
    province_state: North Brabant
    town_city: Werkendam
    updated_at: '2023-12-12T10:55:17.906752'
  model: postcards.location
  pk: 304
- fields:
    country: Netherlands
    created_at: '2023-12-12T10:55:17.906761'
    latitude: 51.756427
    longitude: 5.128269
    province_state: North Brabant
    town_city: Wijk En Aalburg
    updated_at: '2023-12-12T10:55:17.906762'
  model: postcards.location
  pk: 305
- fields:
    country: ''
    created_at: '2023-12-12T10:55:17.906770'
    latitude: 53.143001
    longitude: 7.038072
    province_state: ''
    town_city: Winschoten
    updated_at: '2023-12-12T10:55:17.906771'
  model: postcards.location
  pk: 306
- fields:
    country: Netherlands
    created_at: '2023-12-12T10:55:17.906774'
    latitude: 53.143001
    longitude: 7.038072
    province_state: Groningen
    town_city: Winschoten
    updated_at: '2023-12-12T10:55:17.906775'
  model: postcards.location
  pk: 307
- fields:
    country: Netherlands
    created_at: '2023-12-12T10:55:17.906792'
    latitude: 52.005009
    longitude: 5.792594
    province_state: Gelderland
    town_city: Wolfheze
    updated_at: '2023-12-12T10:55:17.906792'
  model: postcards.location
  pk: 308
- fields:
    country: Netherlands
    created_at: '2023-12-12T10:55:17.906796'
    latitude: 52.495222
    longitude: 4.787657
    province_state: North Holland
    town_city: Wormerveer
    updated_at: '2023-12-12T10:55:17.906797'
  model: postcards.location
  pk: 309
- fields:
    country: Poland
    created_at: '2023-12-12T10:55:17.906801'
    latitude: 51.108978
    longitude: 17.032669
    province_state: Lower Silesia
    town_city: Wroclaw
    updated_at: '2023-12-12T10:55:17.906801'
  model: postcards.location
  pk: 310
- fields:
    country: United States
    created_at: '2023-12-12T10:55:17.906805'
    latitude: 40.93121
    longitude: -73.898747
    province_state: New York
    town_city: Yonkers
    updated_at: '2023-12-12T10:55:17.906806'
  model: postcards.location
  pk: 311
- fields:
    country: Netherlands
    created_at: '2023-12-12T10:55:17.906809'
    latitude: 52.442493
    longitude: 4.829861
    province_state: North Holland
    town_city: Zaandam
    updated_at: '2023-12-12T10:55:17.906810'
  model: postcards.location
  pk: 312
- fields:
    country: Netherlands
    created_at: '2023-12-12T10:55:17.906814'
    latitude: 51.645044
    longitude: 4.606154
    province_state: North Brabant
    town_city: Zevenbergen
    updated_at: '2023-12-12T10:55:17.906814'
  model: postcards.location
  pk: 313
- fields:
    country: Netherlands
    created_at: '2023-12-12T10:55:17.906831'
    latitude: 51.501835
    longitude: 3.487225
    province_state: Zeeland
    town_city: Zoutelande
    updated_at: '2023-12-12T10:55:17.906832'
  model: postcards.location
  pk: 314
- fields:
    country: Netherlands
    created_at: '2023-12-12T10:55:17.906836'
    latitude: 51.235153
    longitude: 3.904357
    province_state: Zeeland
    town_city: Zuiddorpe
    updated_at: '2023-12-12T10:55:17.906837'
  model: postcards.location
  pk: 315
- fields:
    country: Switzerland
    created_at: '2023-12-12T10:55:17.906840'
    latitude: 47.374449
    longitude: 8.541042
    province_state: Zurich
    town_city: Zurich
    updated_at: '2023-12-12T10:55:17.906841'
  model: postcards.location
  pk: 316
- fields:
    country: Netherlands
    created_at: '2023-12-12T10:55:17.906845'
    latitude: 52.139693
    longitude: 6.194772
    province_state: Gelderland
    town_city: Zutphen
    updated_at: '2023-12-12T10:55:17.906845'
  model: postcards.location
  pk: 317
- fields:
    country: ''
    created_at: '2023-12-12T10:55:17.906849'
    latitude: 52.139693
    longitude: 6.194772
    province_state: ''
    town_city: Zutphen
    updated_at: '2023-12-12T10:55:17.906850'
  model: postcards.location
  pk: 318
- fields:
    country: Netherlands
    created_at: '2023-12-12T10:55:17.906853'
    latitude: 52.514565
    longitude: 6.09772
    province_state: Overjissel
    town_city: Zwolle
    updated_at: '2023-12-12T10:55:17.906854'
  model: postcards.location
  pk: 319
